nohup: ignoring input
Running 13cfg_MP1-mTecno.yml...

A. [classroom] LDSS-MP1-imdynaug100 (Matched)
   [model] mTECNOv1 (Matched)
   For ('train', 'process', 'eval')

B. [dataset] LDSS-local (#134498)
   [label type] multi-phase-top1
   [preprocessing] imagenet-dynaug
   [classes] #7 (Unbalanced) ['0Act', '0Obj', 'Dis', 'Fix', 'Pro', 'Rep', 'Vau']
   [weights] [tensor([1.0517, 0.4815, 0.4672, 1.8471]), tensor([0.6701, 2.2169, 0.2655])]
   [phases] #6  ['0Act,0Obj', '0Obj,Rep', 'Dis,Pro', 'Dis,Vau', 'Fix,Pro', 'Fix,Vau'] 

C. [training] start on [device] cpu
   [folds] #7 [epochs] #100 [batch sizes] s32 / t1
   [criterions] [CrossEntropyLoss(), CrossEntropyLoss()] w/ weights [tensor([1.0517, 0.4815, 0.4672, 1.8471]), tensor([0.6701, 2.2169, 0.2655])]
   [headtype] ['4', '3'] 

  Fold 1 splits:
	train ['26d9', '315a', '436c', '5238', 'a909', 'b670', 'b71b', 'e6a9', 'e8d3', 'e8d7']
	valid ['a334', 'f63b']
	test ['cf7c']

    No 'path_spaceModel' found. Using pretrained resnet50 in l4-fine-tune mode.
    Feature size of 2048 at node 'flatten'
    Feature size of None at node 'None'

    Found feature path! (feats_f1-0.80.pt)
  Available feature layers: ['flatten'] / Using last layer: flatten

	Batch example shapes:
	[space feature] torch.Size([581, 16, 2048])
	[labels] [torch.Size([581, 16, 4])]
	[idx] torch.Size([581, 16])
    Batch contains 1 clip(s), each with 16 frames

   [optim]: adam
   [sched]: step

Teaching model:  mTECNOv1_f1
-------------- Epoch 1 --------------
     T
	  [B1]  scr: 0.2645
	  [B4]  scr: 0.4554
	  [B7]  scr: 0.4825
	  [B10]  scr: 0.4167
     V
	  [B1]  scr: 0.0902
	  [B2]  scr: 0.1862
Train Loss: 3.004945	Valid Loss: 3.082151

* New best model (valid loss): inf --> 3.0822 *

-------------- Epoch 2 --------------
     T
	  [B1]  scr: 0.3301
	  [B4]  scr: 0.2996
	  [B7]  scr: 0.3472
	  [B10]  scr: 0.3555
     V
	  [B1]  scr: 0.5728
	  [B2]  scr: 0.5541
Train Loss: 2.721835	Valid Loss: 2.734297

* New best model (valid loss): 3.0822 --> 2.7343 *

-------------- Epoch 3 --------------
     T
	  [B1]  scr: 0.4271
	  [B4]  scr: 0.5221
	  [B7]  scr: 0.5553
	  [B10]  scr: 0.6027
     V
	  [B1]  scr: 0.7038
	  [B2]  scr: 0.7001
Train Loss: 2.453130	Valid Loss: 2.427352

* New best model (valid loss): 2.7343 --> 2.4274 *

-------------- Epoch 4 --------------
     T
	  [B1]  scr: 0.7185
	  [B4]  scr: 0.7274
	  [B7]  scr: 0.7405
	  [B10]  scr: 0.7273
     V
	  [B1]  scr: 0.6924
	  [B2]  scr: 0.6961
Train Loss: 2.084057	Valid Loss: 2.272992

* New best model (valid loss): 2.4274 --> 2.2730 *

-------------- Epoch 5 --------------
     T
	  [B1]  scr: 0.7018
	  [B4]  scr: 0.7375
	  [B7]  scr: 0.7363
	  [B10]  scr: 0.7462
     V
	  [B1]  scr: 0.6586
	  [B2]  scr: 0.5865
Train Loss: 1.772586	Valid Loss: 2.203939

* New best model (valid loss): 2.2730 --> 2.2039 *

-------------- Epoch 6 --------------
     T
	  [B1]  scr: 0.5874
	  [B4]  scr: 0.6350
	  [B7]  scr: 0.6970
	  [B10]  scr: 0.6891
     V
	  [B1]  scr: 0.6219
	  [B2]  scr: 0.6416
Train Loss: 1.935773	Valid Loss: 1.884072

* New best model (valid loss): 2.2039 --> 1.8841 *

-------------- Epoch 7 --------------
     T
	  [B1]  scr: 0.7883
	  [B4]  scr: 0.7577
	  [B7]  scr: 0.7684
	  [B10]  scr: 0.7796
     V
	  [B1]  scr: 0.7488
	  [B2]  scr: 0.7421
Train Loss: 1.546317	Valid Loss: 1.683679

* New best model (valid loss): 1.8841 --> 1.6837 *

-------------- Epoch 8 --------------
     T
	  [B1]  scr: 0.8294
	  [B4]  scr: 0.7449
	  [B7]  scr: 0.7121
	  [B10]  scr: 0.7426
     V
	  [B1]  scr: 0.7299
	  [B2]  scr: 0.7404
Train Loss: 1.564695	Valid Loss: 1.959377
-------------- Epoch 9 --------------
     T
	  [B1]  scr: 0.7878
	  [B4]  scr: 0.7832
	  [B7]  scr: 0.7916
	  [B10]  scr: 0.7811
     V
	  [B1]  scr: 0.7969
	  [B2]  scr: 0.7421
Train Loss: 1.401715	Valid Loss: 2.024622
-------------- Epoch 10 --------------
     T
	  [B1]  scr: 0.7975
	  [B4]  scr: 0.8254
	  [B7]  scr: 0.8259
	  [B10]  scr: 0.8155
     V
	  [B1]  scr: 0.7133
	  [B2]  scr: 0.6862
Train Loss: 1.343417	Valid Loss: 1.714662
-------------- Epoch 11 --------------
     T
	  [B1]  scr: 0.6937
	  [B4]  scr: 0.7153
	  [B7]  scr: 0.7733
	  [B10]  scr: 0.7930
     V
	  [B1]  scr: 0.6789
	  [B2]  scr: 0.7062
Train Loss: 1.404914	Valid Loss: 1.828737
-------------- Epoch 12 --------------
     T
	  [B1]  scr: 0.8155
	  [B4]  scr: 0.7589
	  [B7]  scr: 0.7602
	  [B10]  scr: 0.7885
     V
	  [B1]  scr: 0.8000
	  [B2]  scr: 0.7609
Train Loss: 1.289696	Valid Loss: 1.945924

* Stopped early *

E. [Evaluating] from trained model mTECNOv1_f1-0.74

	Testing...
	  [B1]  scr: 0.6826

Test Score: 0.6826 (took 0.81s)

./logs/LDSS-MP1-imdynaug100/mTECNOv1/eval/aprfc/cm_f1-0.74.png
{'0Act,0Obj': 0, '0Obj,Rep': 1, 'Dis,Pro': 2, 'Dis,Vau': 3, 'Fix,Pro': 4, 'Fix,Vau': 5}

phases_preds counts: [2328 1629 1458 6055  151 5128] 	 16749
phases_gt counts: [5930 1281 1128 3955  157 5325] 	 17776
{0: '0Act,0Obj', 1: '0Obj,Rep', 2: 'Dis,Pro', 3: 'Dis,Vau', 4: 'Fix,Pro', 5: 'Fix,Vau'}

Video cf7c Phase Report
           |  T Preds   | T Targets  ||   Error   
0Act,0Obj  |  38m 48s   | 1h 38m 50s ||   1h 2s   
0Obj,Rep   |   27m 9s   |  21m 21s   ||   5m 48s  
Dis,Pro    |  24m 18s   |  18m 48s   ||   5m 30s  
Dis,Vau    | 1h 40m 55s | 1h 5m 55s  ||    35m    
Fix,Pro    |   2m 31s   |   2m 37s   ||     6s    
Fix,Vau    | 1h 25m 28s | 1h 28m 45s ||   3m 17s   

invalid preds:  1027  /  17776
Pred
0Obj,Dis    647
0Act,Vau    222
Rep,Vau      91
0Obj,Fix     40
Pro,Rep      22
0Act,Pro      5
Name: count, dtype: int64
Saving aggregated phase timing results to ./logs/LDSS-MP1-imdynaug100/mTECNOv1/eval/timings/timings_Summary.csv


Number of videos: 1
Video graphing took 1.03 seconds

Saved phase metric graphs to ./logs/LDSS-MP1-imdynaug100/mTECNOv1/eval/ribbons

	 = = = = = 	 = = = = =
		 Fold 1 done!
	 = = = = = 	 = = = = =

  Fold 2 splits:
	train ['26d9', '315a', '436c', '5238', 'a909', 'b670', 'b71b', 'e6a9', 'e8d3', 'e8d7']
	valid ['cf7c']
	test ['a334', 'f63b']

    No 'path_spaceModel' found. Using pretrained resnet50 in l4-fine-tune mode.
    Feature size of 2048 at node 'flatten'
    Feature size of None at node 'None'

    Found feature path! (feats_f2-0.72.pt)
  Available feature layers: ['flatten'] / Using last layer: flatten

	Batch example shapes:
	[space feature] torch.Size([577, 16, 2048])
	[labels] [torch.Size([577, 16, 4])]
	[idx] torch.Size([577, 16])
    Batch contains 1 clip(s), each with 16 frames

   [optim]: adam
   [sched]: step

Teaching model:  mTECNOv1_f2
-------------- Epoch 1 --------------
     T
	  [B1]  scr: 0.1817
	  [B4]  scr: 0.2528
	  [B7]  scr: 0.3548
	  [B10]  scr: 0.3962
     V
	  [B1]  scr: 0.4441
Train Loss: 3.010739	Valid Loss: 3.227859

* New best model (valid loss): inf --> 3.2279 *

-------------- Epoch 2 --------------
     T
	  [B1]  scr: 0.5118
	  [B4]  scr: 0.3959
	  [B7]  scr: 0.3731
	  [B10]  scr: 0.3900
     V
	  [B1]  scr: 0.3499
Train Loss: 2.722454	Valid Loss: 3.022007

* New best model (valid loss): 3.2279 --> 3.0220 *

-------------- Epoch 3 --------------
     T
	  [B1]  scr: 0.4831
	  [B4]  scr: 0.5098
	  [B7]  scr: 0.5587
	  [B10]  scr: 0.6068
     V
	  [B1]  scr: 0.5572
Train Loss: 2.415545	Valid Loss: 2.725112

* New best model (valid loss): 3.0220 --> 2.7251 *

-------------- Epoch 4 --------------
     T
	  [B1]  scr: 0.6912
	  [B4]  scr: 0.6905
	  [B7]  scr: 0.6856
	  [B10]  scr: 0.7104
     V
	  [B1]  scr: 0.6168
Train Loss: 2.103497	Valid Loss: 2.625853

* New best model (valid loss): 2.7251 --> 2.6259 *

-------------- Epoch 5 --------------
     T
	  [B1]  scr: 0.8227
	  [B4]  scr: 0.7877
	  [B7]  scr: 0.7137
	  [B10]  scr: 0.7018
     V
	  [B1]  scr: 0.6261
Train Loss: 2.081499	Valid Loss: 2.442487

* New best model (valid loss): 2.6259 --> 2.4425 *

-------------- Epoch 6 --------------
     T
	  [B1]  scr: 0.7650
	  [B4]  scr: 0.6898
	  [B7]  scr: 0.7402
	  [B10]  scr: 0.7341
     V
	  [B1]  scr: 0.5123
Train Loss: 1.835044	Valid Loss: 2.829168
-------------- Epoch 7 --------------
     T
	  [B1]  scr: 0.6992
	  [B4]  scr: 0.7412
	  [B7]  scr: 0.7535
	  [B10]  scr: 0.7525
     V
	  [B1]  scr: 0.6689
Train Loss: 1.651314	Valid Loss: 2.410225

* New best model (valid loss): 2.4425 --> 2.4102 *

-------------- Epoch 8 --------------
     T
	  [B1]  scr: 0.7327
	  [B4]  scr: 0.7815
	  [B7]  scr: 0.7835
	  [B10]  scr: 0.7945
     V
	  [B1]  scr: 0.6635
Train Loss: 1.429518	Valid Loss: 2.816962
-------------- Epoch 9 --------------
     T
	  [B1]  scr: 0.8860
	  [B4]  scr: 0.8365
	  [B7]  scr: 0.7934
	  [B10]  scr: 0.7955
     V
	  [B1]  scr: 0.6712
Train Loss: 1.369660	Valid Loss: 2.804855
-------------- Epoch 10 --------------
     T
	  [B1]  scr: 0.9116
	  [B4]  scr: 0.8723
	  [B7]  scr: 0.8301
	  [B10]  scr: 0.8182
     V
	  [B1]  scr: 0.6666
Train Loss: 1.324187	Valid Loss: 2.618387
-------------- Epoch 11 --------------
     T
	  [B1]  scr: 0.7931
	  [B4]  scr: 0.8112
	  [B7]  scr: 0.8341
	  [B10]  scr: 0.8177
     V
	  [B1]  scr: 0.6552
Train Loss: 1.313533	Valid Loss: 2.333873

* New best model (valid loss): 2.4102 --> 2.3339 *

-------------- Epoch 12 --------------
     T
	  [B1]  scr: 0.6457
	  [B4]  scr: 0.7810
	  [B7]  scr: 0.8179
	  [B10]  scr: 0.8181
     V
	  [B1]  scr: 0.6869
Train Loss: 1.254089	Valid Loss: 2.439508
-------------- Epoch 13 --------------
     T
	  [B1]  scr: 0.8813
	  [B4]  scr: 0.8555
	  [B7]  scr: 0.8325
	  [B10]  scr: 0.8367
     V
	  [B1]  scr: 0.6725
Train Loss: 1.089933	Valid Loss: 2.836999
-------------- Epoch 14 --------------
     T
	  [B1]  scr: 0.8480
	  [B4]  scr: 0.8777
	  [B7]  scr: 0.8463
	  [B10]  scr: 0.8519
     V
	  [B1]  scr: 0.7103
Train Loss: 1.045816	Valid Loss: 2.562961
-------------- Epoch 15 --------------
     T
	  [B1]  scr: 0.8205
	  [B4]  scr: 0.8594
	  [B7]  scr: 0.8543
	  [B10]  scr: 0.8657
     V
	  [B1]  scr: 0.7123
Train Loss: 0.963026	Valid Loss: 2.435312
-------------- Epoch 16 --------------
     T
	  [B1]  scr: 0.8748
	  [B4]  scr: 0.8690
	  [B7]  scr: 0.8639
	  [B10]  scr: 0.8690
     V
	  [B1]  scr: 0.6924
Train Loss: 0.921572	Valid Loss: 2.693059

* Stopped early *

E. [Evaluating] from trained model mTECNOv1_f2-0.66

	Testing...
	  [B1]  scr: 0.7758
	  [B2]  scr: 0.7640

Test Score: 0.7640 (took 0.93s)

./logs/LDSS-MP1-imdynaug100/mTECNOv1/eval/aprfc/cm_f2-0.66.png
{'0Act,0Obj': 0, '0Obj,Rep': 1, 'Dis,Pro': 2, 'Dis,Vau': 3, 'Fix,Pro': 4, 'Fix,Vau': 5}

phases_preds counts: [ 341  793  199 1121  140 3556] 	 6150
phases_gt counts: [ 579 1423   53  916  100 3339] 	 6410
{0: '0Act,0Obj', 1: '0Obj,Rep', 2: 'Dis,Pro', 3: 'Dis,Vau', 4: 'Fix,Pro', 5: 'Fix,Vau'}

Video a334 Phase Report
           |  T Preds   | T Targets  ||   Error   
0Act,0Obj  |   5m 41s   |   9m 39s   ||   3m 58s  
0Obj,Rep   |  13m 13s   |  23m 43s   ||  10m 30s  
Dis,Pro    |   3m 19s   |    53s     ||   2m 26s  
Dis,Vau    |  18m 41s   |  15m 16s   ||   3m 25s  
Fix,Pro    |   2m 20s   |   1m 40s   ||    40s    
Fix,Vau    |  59m 16s   |  55m 39s   ||   3m 37s   


phases_preds counts: [ 890 1348 1873 3632   89 4581] 	 12413
phases_gt counts: [2841  718 1344 3002  155 4896] 	 12956
{0: '0Act,0Obj', 1: '0Obj,Rep', 2: 'Dis,Pro', 3: 'Dis,Vau', 4: 'Fix,Pro', 5: 'Fix,Vau'}

Video f63b Phase Report
           |  T Preds   | T Targets  ||   Error   
0Act,0Obj  |  14m 50s   |  47m 21s   ||  32m 31s  
0Obj,Rep   |  22m 28s   |  11m 58s   ||  10m 30s  
Dis,Pro    |  31m 13s   |  22m 24s   ||   8m 49s  
Dis,Vau    |   1h 32s   |   50m 2s   ||  10m 30s  
Fix,Pro    |   1m 29s   |   2m 35s   ||   1m 6s   
Fix,Vau    | 1h 16m 21s | 1h 21m 36s ||   5m 15s   

invalid preds:  803  /  19366
Pred
Rep,Vau     288
0Obj,Dis    255
0Act,Vau    119
0Act,Pro    116
0Obj,Fix     14
Pro,Rep      11
Name: count, dtype: int64
Saving aggregated phase timing results to ./logs/LDSS-MP1-imdynaug100/mTECNOv1/eval/timings/timings_Summary.csv


Number of videos: 2
Video graphing took 1.36 seconds

Saved phase metric graphs to ./logs/LDSS-MP1-imdynaug100/mTECNOv1/eval/ribbons

	 = = = = = 	 = = = = =
		 Fold 2 done!
	 = = = = = 	 = = = = =

  Fold 3 splits:
	train ['26d9', '315a', '436c', '5238', 'a334', 'a909', 'b670', 'b71b', 'e8d3', 'f63b']
	valid ['cf7c']
	test ['e6a9', 'e8d7']

    No 'path_spaceModel' found. Using pretrained resnet50 in l4-fine-tune mode.
    Feature size of 2048 at node 'flatten'
    Feature size of None at node 'None'

    Found feature path! (feats_f3-0.76.pt)
  Available feature layers: ['flatten'] / Using last layer: flatten

	Batch example shapes:
	[space feature] torch.Size([699, 16, 2048])
	[labels] [torch.Size([699, 16, 4])]
	[idx] torch.Size([699, 16])
    Batch contains 1 clip(s), each with 16 frames

   [optim]: adam
   [sched]: step

Teaching model:  mTECNOv1_f3
-------------- Epoch 1 --------------
     T
	  [B1]  scr: 0.2519
	  [B4]  scr: 0.3206
	  [B7]  scr: 0.3464
	  [B10]  scr: 0.3384
     V
	  [B1]  scr: 0.2363
Train Loss: 3.045870	Valid Loss: 3.262922

* New best model (valid loss): inf --> 3.2629 *

-------------- Epoch 2 --------------
     T
	  [B1]  scr: 0.3726
	  [B4]  scr: 0.3847
	  [B7]  scr: 0.4311
	  [B10]  scr: 0.4632
     V
	  [B1]  scr: 0.5589
Train Loss: 2.743866	Valid Loss: 3.036587

* New best model (valid loss): 3.2629 --> 3.0366 *

-------------- Epoch 3 --------------
     T
	  [B1]  scr: 0.7456
	  [B4]  scr: 0.6483
	  [B7]  scr: 0.6190
	  [B10]  scr: 0.6347
     V
	  [B1]  scr: 0.5489
Train Loss: 2.476429	Valid Loss: 2.915884

* New best model (valid loss): 3.0366 --> 2.9159 *

-------------- Epoch 4 --------------
     T
	  [B1]  scr: 0.6562
	  [B4]  scr: 0.6487
	  [B7]  scr: 0.6573
	  [B10]  scr: 0.6788
     V
	  [B1]  scr: 0.6026
Train Loss: 2.180376	Valid Loss: 2.713348

* New best model (valid loss): 2.9159 --> 2.7133 *

-------------- Epoch 5 --------------
     T
	  [B1]  scr: 0.7189
	  [B4]  scr: 0.7523
	  [B7]  scr: 0.7542
	  [B10]  scr: 0.7312
     V
	  [B1]  scr: 0.5606
Train Loss: 1.953517	Valid Loss: 2.827998
-------------- Epoch 6 --------------
     T
	  [B1]  scr: 0.6266
	  [B4]  scr: 0.6195
	  [B7]  scr: 0.6614
	  [B10]  scr: 0.7043
     V
	  [B1]  scr: 0.6649
Train Loss: 1.880930	Valid Loss: 2.531525

* New best model (valid loss): 2.7133 --> 2.5315 *

-------------- Epoch 7 --------------
     T
	  [B1]  scr: 0.7902
	  [B4]  scr: 0.7646
	  [B7]  scr: 0.7925
	  [B10]  scr: 0.7916
     V
	  [B1]  scr: 0.6870
Train Loss: 1.475150	Valid Loss: 2.580979
-------------- Epoch 8 --------------
     T
	  [B1]  scr: 0.7896
	  [B4]  scr: 0.8041
	  [B7]  scr: 0.8018
	  [B10]  scr: 0.8209
     V
	  [B1]  scr: 0.6880
Train Loss: 1.295705	Valid Loss: 2.685619
-------------- Epoch 9 --------------
     T
	  [B1]  scr: 0.7980
	  [B4]  scr: 0.8262
	  [B7]  scr: 0.8263
	  [B10]  scr: 0.8241
     V
	  [B1]  scr: 0.7037
Train Loss: 1.187844	Valid Loss: 2.548406
-------------- Epoch 10 --------------
     T
	  [B1]  scr: 0.8561
	  [B4]  scr: 0.8515
	  [B7]  scr: 0.8401
	  [B10]  scr: 0.8364
     V
	  [B1]  scr: 0.6849
Train Loss: 1.160581	Valid Loss: 2.436460

* New best model (valid loss): 2.5315 --> 2.4365 *

-------------- Epoch 11 --------------
     T
	  [B1]  scr: 0.8349
	  [B4]  scr: 0.8403
	  [B7]  scr: 0.8262
	  [B10]  scr: 0.8342
     V
	  [B1]  scr: 0.6483
Train Loss: 1.200188	Valid Loss: 2.516184
-------------- Epoch 12 --------------
     T
	  [B1]  scr: 0.8407
	  [B4]  scr: 0.8156
	  [B7]  scr: 0.8417
	  [B10]  scr: 0.8520
     V
	  [B1]  scr: 0.6703
Train Loss: 1.074818	Valid Loss: 2.565286
-------------- Epoch 13 --------------
     T
	  [B1]  scr: 0.8337
	  [B4]  scr: 0.8157
	  [B7]  scr: 0.8111
	  [B10]  scr: 0.8260
     V
	  [B1]  scr: 0.7053
Train Loss: 1.167514	Valid Loss: 2.420815

* New best model (valid loss): 2.4365 --> 2.4208 *

-------------- Epoch 14 --------------
     T
	  [B1]  scr: 0.7871
	  [B4]  scr: 0.8168
	  [B7]  scr: 0.8242
	  [B10]  scr: 0.8273
     V
	  [B1]  scr: 0.7192
Train Loss: 1.159007	Valid Loss: 2.346740

* New best model (valid loss): 2.4208 --> 2.3467 *

-------------- Epoch 15 --------------
     T
	  [B1]  scr: 0.7838
	  [B4]  scr: 0.8665
	  [B7]  scr: 0.8587
	  [B10]  scr: 0.8534
     V
	  [B1]  scr: 0.6603
Train Loss: 1.078706	Valid Loss: 2.864213
-------------- Epoch 16 --------------
     T
	  [B1]  scr: 0.8911
	  [B4]  scr: 0.8667
	  [B7]  scr: 0.8646
	  [B10]  scr: 0.8661
     V
	  [B1]  scr: 0.6569
Train Loss: 0.991394	Valid Loss: 2.783549
-------------- Epoch 17 --------------
     T
	  [B1]  scr: 0.8652
	  [B4]  scr: 0.8341
	  [B7]  scr: 0.8581
	  [B10]  scr: 0.8659
     V
	  [B1]  scr: 0.7218
Train Loss: 0.941208	Valid Loss: 2.349145
-------------- Epoch 18 --------------
     T
	  [B1]  scr: 0.8869
	  [B4]  scr: 0.8714
	  [B7]  scr: 0.8612
	  [B10]  scr: 0.8801
     V
	  [B1]  scr: 0.7009
Train Loss: 0.852423	Valid Loss: 2.488022
-------------- Epoch 19 --------------
     T
	  [B1]  scr: 0.9050
	  [B4]  scr: 0.8840
	  [B7]  scr: 0.8842
	  [B10]  scr: 0.8634
     V
	  [B1]  scr: 0.7328
Train Loss: 0.956351	Valid Loss: 2.263038

* New best model (valid loss): 2.3467 --> 2.2630 *

-------------- Epoch 20 --------------
     T
	  [B1]  scr: 0.9053
	  [B4]  scr: 0.9068
	  [B7]  scr: 0.8938
	  [B10]  scr: 0.8769
     V
	  [B1]  scr: 0.7363
Train Loss: 0.851108	Valid Loss: 2.444253
-------------- Epoch 21 --------------
     T
	  [B1]  scr: 0.8737
	  [B4]  scr: 0.9046
	  [B7]  scr: 0.9056
	  [B10]  scr: 0.8924
     V
	  [B1]  scr: 0.6392
Train Loss: 0.822126	Valid Loss: 2.516713
-------------- Epoch 22 --------------
     T
	  [B1]  scr: 0.8477
	  [B4]  scr: 0.8665
	  [B7]  scr: 0.8755
	  [B10]  scr: 0.8796
     V
	  [B1]  scr: 0.6726
Train Loss: 0.825153	Valid Loss: 2.437665
-------------- Epoch 23 --------------
     T
	  [B1]  scr: 0.8598
	  [B4]  scr: 0.8850
	  [B7]  scr: 0.8921
	  [B10]  scr: 0.8825
     V
	  [B1]  scr: 0.6801
Train Loss: 0.812690	Valid Loss: 2.481251
-------------- Epoch 24 --------------
     T
	  [B1]  scr: 0.8942
	  [B4]  scr: 0.8874
	  [B7]  scr: 0.8903
	  [B10]  scr: 0.8947
     V
	  [B1]  scr: 0.7079
Train Loss: 0.777869	Valid Loss: 2.476000

* Stopped early *

E. [Evaluating] from trained model mTECNOv1_f3-0.73

	Testing...
	  [B1]  scr: 0.6682
	  [B2]  scr: 0.7115

Test Score: 0.7115 (took 0.83s)

./logs/LDSS-MP1-imdynaug100/mTECNOv1/eval/aprfc/cm_f3-0.73.png
{'0Act,0Obj': 0, '0Obj,Rep': 1, 'Dis,Pro': 2, 'Dis,Vau': 3, 'Fix,Pro': 4, 'Fix,Vau': 5}

phases_preds counts: [2807  437  743 2309 1058 4611] 	 11965
phases_gt counts: [2072 1604  445 4324  280 4039] 	 12764
{0: '0Act,0Obj', 1: '0Obj,Rep', 2: 'Dis,Pro', 3: 'Dis,Vau', 4: 'Fix,Pro', 5: 'Fix,Vau'}

Video e6a9 Phase Report
           |  T Preds   | T Targets  ||   Error   
0Act,0Obj  |  46m 47s   |  34m 32s   ||  12m 15s  
0Obj,Rep   |   7m 17s   |  26m 44s   ||  19m 27s  
Dis,Pro    |  12m 23s   |   7m 25s   ||   4m 58s  
Dis,Vau    |  38m 29s   | 1h 12m 4s  ||  33m 35s  
Fix,Pro    |  17m 38s   |   4m 40s   ||  12m 58s  
Fix,Vau    | 1h 16m 51s | 1h 7m 19s  ||   9m 32s   


phases_preds counts: [1185  864  498 1746  261 1703] 	 6257
phases_gt counts: [ 964  890  836 1709  211 1968] 	 6578
{0: '0Act,0Obj', 1: '0Obj,Rep', 2: 'Dis,Pro', 3: 'Dis,Vau', 4: 'Fix,Pro', 5: 'Fix,Vau'}

Video e8d7 Phase Report
           |  T Preds   | T Targets  ||   Error   
0Act,0Obj  |  19m 45s   |   16m 4s   ||   3m 41s  
0Obj,Rep   |  14m 24s   |  14m 50s   ||    26s    
Dis,Pro    |   8m 18s   |  13m 56s   ||   5m 38s  
Dis,Vau    |   29m 6s   |  28m 29s   ||    37s    
Fix,Pro    |   4m 21s   |   3m 31s   ||    50s    
Fix,Vau    |  28m 23s   |  32m 48s   ||   4m 25s   

invalid preds:  1120  /  19342
Pred
0Obj,Dis    385
0Act,Pro    343
0Act,Vau    270
0Obj,Fix     55
Rep,Vau      54
Pro,Rep      13
Name: count, dtype: int64
Saving aggregated phase timing results to ./logs/LDSS-MP1-imdynaug100/mTECNOv1/eval/timings/timings_Summary.csv


Number of videos: 2
Video graphing took 1.45 seconds

Saved phase metric graphs to ./logs/LDSS-MP1-imdynaug100/mTECNOv1/eval/ribbons

	 = = = = = 	 = = = = =
		 Fold 3 done!
	 = = = = = 	 = = = = =

  Fold 4 splits:
	train ['26d9', '315a', '436c', 'a334', 'a909', 'b670', 'b71b', 'e6a9', 'e8d7', 'f63b']
	valid ['cf7c']
	test ['5238', 'e8d3']

    No 'path_spaceModel' found. Using pretrained resnet50 in l4-fine-tune mode.
    Feature size of 2048 at node 'flatten'
    Feature size of None at node 'None'

    Found feature path! (feats_f4-0.72.pt)
  Available feature layers: ['flatten'] / Using last layer: flatten

	Batch example shapes:
	[space feature] torch.Size([517, 16, 2048])
	[labels] [torch.Size([517, 16, 4])]
	[idx] torch.Size([517, 16])
    Batch contains 1 clip(s), each with 16 frames

   [optim]: adam
   [sched]: step

Teaching model:  mTECNOv1_f4
-------------- Epoch 1 --------------
     T
	  [B1]  scr: 0.1253
	  [B4]  scr: 0.2074
	  [B7]  scr: 0.1752
	  [B10]  scr: 0.1898
     V
	  [B1]  scr: 0.3023
Train Loss: 3.074865	Valid Loss: 3.215931

* New best model (valid loss): inf --> 3.2159 *

-------------- Epoch 2 --------------
     T
	  [B1]  scr: 0.3662
	  [B4]  scr: 0.3560
	  [B7]  scr: 0.3521
	  [B10]  scr: 0.3694
     V
	  [B1]  scr: 0.3854
Train Loss: 2.755414	Valid Loss: 3.054128

* New best model (valid loss): 3.2159 --> 3.0541 *

-------------- Epoch 3 --------------
     T
	  [B1]  scr: 0.5168
	  [B4]  scr: 0.5749
	  [B7]  scr: 0.6008
	  [B10]  scr: 0.5886
     V
	  [B1]  scr: 0.5847
Train Loss: 2.484285	Valid Loss: 2.630582

* New best model (valid loss): 3.0541 --> 2.6306 *

-------------- Epoch 4 --------------
     T
	  [B1]  scr: 0.5724
	  [B4]  scr: 0.6292
	  [B7]  scr: 0.6678
	  [B10]  scr: 0.6812
     V
	  [B1]  scr: 0.6071
Train Loss: 2.198409	Valid Loss: 2.736202
-------------- Epoch 5 --------------
     T
	  [B1]  scr: 0.7659
	  [B4]  scr: 0.7252
	  [B7]  scr: 0.7111
	  [B10]  scr: 0.6977
     V
	  [B1]  scr: 0.6690
Train Loss: 1.895784	Valid Loss: 2.432887

* New best model (valid loss): 2.6306 --> 2.4329 *

-------------- Epoch 6 --------------
     T
	  [B1]  scr: 0.7393
	  [B4]  scr: 0.7806
	  [B7]  scr: 0.7395
	  [B10]  scr: 0.7368
     V
	  [B1]  scr: 0.6872
Train Loss: 1.715420	Valid Loss: 2.428631

* New best model (valid loss): 2.4329 --> 2.4286 *

-------------- Epoch 7 --------------
     T
	  [B1]  scr: 0.7783
	  [B4]  scr: 0.8189
	  [B7]  scr: 0.7868
	  [B10]  scr: 0.7654
     V
	  [B1]  scr: 0.6325
Train Loss: 1.624582	Valid Loss: 2.479536
-------------- Epoch 8 --------------
     T
	  [B1]  scr: 0.7948
	  [B4]  scr: 0.7685
	  [B7]  scr: 0.7795
	  [B10]  scr: 0.7826
     V
	  [B1]  scr: 0.6311
Train Loss: 1.468928	Valid Loss: 2.398289

* New best model (valid loss): 2.4286 --> 2.3983 *

-------------- Epoch 9 --------------
     T
	  [B1]  scr: 0.6909
	  [B4]  scr: 0.7614
	  [B7]  scr: 0.7893
	  [B10]  scr: 0.7909
     V
	  [B1]  scr: 0.7019
Train Loss: 1.346568	Valid Loss: 2.279501

* New best model (valid loss): 2.3983 --> 2.2795 *

-------------- Epoch 10 --------------
     T
	  [B1]  scr: 0.7540
	  [B4]  scr: 0.7859
	  [B7]  scr: 0.8279
	  [B10]  scr: 0.8249
     V
	  [B1]  scr: 0.6393
Train Loss: 1.236563	Valid Loss: 2.405528
-------------- Epoch 11 --------------
     T
	  [B1]  scr: 0.8257
	  [B4]  scr: 0.8118
	  [B7]  scr: 0.8225
	  [B10]  scr: 0.8234
     V
	  [B1]  scr: 0.6029
Train Loss: 1.215177	Valid Loss: 2.983136
-------------- Epoch 12 --------------
     T
	  [B1]  scr: 0.8289
	  [B4]  scr: 0.8389
	  [B7]  scr: 0.8367
	  [B10]  scr: 0.8361
     V
	  [B1]  scr: 0.7080
Train Loss: 1.160013	Valid Loss: 2.342305
-------------- Epoch 13 --------------
     T
	  [B1]  scr: 0.8469
	  [B4]  scr: 0.8346
	  [B7]  scr: 0.8553
	  [B10]  scr: 0.8493
     V
	  [B1]  scr: 0.6891
Train Loss: 1.054975	Valid Loss: 2.824743
-------------- Epoch 14 --------------
     T
	  [B1]  scr: 0.8967
	  [B4]  scr: 0.8730
	  [B7]  scr: 0.8542
	  [B10]  scr: 0.8568
     V
	  [B1]  scr: 0.7044
Train Loss: 1.024572	Valid Loss: 2.233097

* New best model (valid loss): 2.2795 --> 2.2331 *

-------------- Epoch 15 --------------
     T
	  [B1]  scr: 0.8769
	  [B4]  scr: 0.8413
	  [B7]  scr: 0.8608
	  [B10]  scr: 0.8509
     V
	  [B1]  scr: 0.7109
Train Loss: 0.993550	Valid Loss: 2.206953

* New best model (valid loss): 2.2331 --> 2.2070 *

-------------- Epoch 16 --------------
     T
	  [B1]  scr: 0.7882
	  [B4]  scr: 0.8587
	  [B7]  scr: 0.8626
	  [B10]  scr: 0.8562
     V
	  [B1]  scr: 0.7389
Train Loss: 1.008406	Valid Loss: 2.377662
-------------- Epoch 17 --------------
     T
	  [B1]  scr: 0.8754
	  [B4]  scr: 0.8562
	  [B7]  scr: 0.8378
	  [B10]  scr: 0.8358
     V
	  [B1]  scr: 0.7537
Train Loss: 1.165050	Valid Loss: 2.300519
-------------- Epoch 18 --------------
     T
	  [B1]  scr: 0.8903
	  [B4]  scr: 0.8993
	  [B7]  scr: 0.8636
	  [B10]  scr: 0.8695
     V
	  [B1]  scr: 0.7078
Train Loss: 0.967690	Valid Loss: 2.643159
-------------- Epoch 19 --------------
     T
	  [B1]  scr: 0.9131
	  [B4]  scr: 0.8896
	  [B7]  scr: 0.8878
	  [B10]  scr: 0.8855
     V
	  [B1]  scr: 0.7092
Train Loss: 0.851104	Valid Loss: 2.710488
-------------- Epoch 20 --------------
     T
	  [B1]  scr: 0.9175
	  [B4]  scr: 0.8991
	  [B7]  scr: 0.8697
	  [B10]  scr: 0.8793
     V
	  [B1]  scr: 0.7565
Train Loss: 0.894899	Valid Loss: 2.051256

* New best model (valid loss): 2.2070 --> 2.0513 *

-------------- Epoch 21 --------------
     T
	  [B1]  scr: 0.8972
	  [B4]  scr: 0.8286
	  [B7]  scr: 0.8671
	  [B10]  scr: 0.8724
     V
	  [B1]  scr: 0.7609
Train Loss: 0.869595	Valid Loss: 2.115032
-------------- Epoch 22 --------------
     T
	  [B1]  scr: 0.8608
	  [B4]  scr: 0.8563
	  [B7]  scr: 0.8711
	  [B10]  scr: 0.8741
     V
	  [B1]  scr: 0.7485
Train Loss: 0.871985	Valid Loss: 2.189348
-------------- Epoch 23 --------------
     T
	  [B1]  scr: 0.8905
	  [B4]  scr: 0.9090
	  [B7]  scr: 0.9067
	  [B10]  scr: 0.8955
     V
	  [B1]  scr: 0.6910
Train Loss: 0.766771	Valid Loss: 2.810712
-------------- Epoch 24 --------------
     T
	  [B1]  scr: 0.9330
	  [B4]  scr: 0.8978
	  [B7]  scr: 0.9074
	  [B10]  scr: 0.8971
     V
	  [B1]  scr: 0.7327
Train Loss: 0.731152	Valid Loss: 2.382729
-------------- Epoch 25 --------------
     T
	  [B1]  scr: 0.8515
	  [B4]  scr: 0.9053
	  [B7]  scr: 0.8981
	  [B10]  scr: 0.8817
     V
	  [B1]  scr: 0.7485
Train Loss: 0.766458	Valid Loss: 2.539319

* Stopped early *

E. [Evaluating] from trained model mTECNOv1_f4-0.76

	Testing...
	  [B1]  scr: 0.7937
	  [B2]  scr: 0.7756

Test Score: 0.7756 (took 0.83s)

./logs/LDSS-MP1-imdynaug100/mTECNOv1/eval/aprfc/cm_f4-0.76.png
{'0Act,0Obj': 0, '0Obj,Rep': 1, 'Dis,Pro': 2, 'Dis,Vau': 3, 'Fix,Pro': 4, 'Fix,Vau': 5}

phases_preds counts: [3099  597  913 3199  131 2936] 	 10875
phases_gt counts: [2439 1014  359 4849  135 2530] 	 11326
{0: '0Act,0Obj', 1: '0Obj,Rep', 2: 'Dis,Pro', 3: 'Dis,Vau', 4: 'Fix,Pro', 5: 'Fix,Vau'}

Video 5238 Phase Report
           |  T Preds   | T Targets  ||   Error   
0Act,0Obj  |  51m 39s   |  40m 39s   ||    11m    
0Obj,Rep   |   9m 57s   |  16m 54s   ||   6m 57s  
Dis,Pro    |  15m 13s   |   5m 59s   ||   9m 14s  
Dis,Vau    |  53m 19s   | 1h 20m 49s ||  27m 30s  
Fix,Pro    |   2m 11s   |   2m 15s   ||     4s    
Fix,Vau    |  48m 56s   |  42m 10s   ||   6m 46s   


phases_preds counts: [1259    0  645 2086  112 3163] 	 7265
phases_gt counts: [ 632    0  451 3121   57 3150] 	 7411
{0: '0Act,0Obj', 1: '0Obj,Rep', 2: 'Dis,Pro', 3: 'Dis,Vau', 4: 'Fix,Pro', 5: 'Fix,Vau'}

Video e8d3 Phase Report
           |  T Preds   | T Targets  ||   Error   
0Act,0Obj  |  20m 59s   |  10m 32s   ||  10m 27s  
0Obj,Rep   |     0s     |     0s     ||     0s    
Dis,Pro    |  10m 45s   |   7m 31s   ||   3m 14s  
Dis,Vau    |  34m 46s   |   52m 1s   ||  17m 15s  
Fix,Pro    |   1m 52s   |    57s     ||    55s    
Fix,Vau    |  52m 43s   |  52m 30s   ||    13s     

invalid preds:  597  /  18737
Pred
0Obj,Dis    255
0Act,Pro    227
0Act,Vau     87
Rep,Vau      25
0Obj,Fix      3
Name: count, dtype: int64
Saving aggregated phase timing results to ./logs/LDSS-MP1-imdynaug100/mTECNOv1/eval/timings/timings_Summary.csv


Number of videos: 2
Video graphing took 1.44 seconds

Saved phase metric graphs to ./logs/LDSS-MP1-imdynaug100/mTECNOv1/eval/ribbons

	 = = = = = 	 = = = = =
		 Fold 4 done!
	 = = = = = 	 = = = = =

  Fold 5 splits:
	train ['26d9', '315a', '436c', '5238', 'a334', 'b670', 'e6a9', 'e8d3', 'e8d7', 'f63b']
	valid ['cf7c']
	test ['a909', 'b71b']

    No 'path_spaceModel' found. Using pretrained resnet50 in l4-fine-tune mode.
    Feature size of 2048 at node 'flatten'
    Feature size of None at node 'None'

    Found feature path! (feats_f5-0.72.pt)
  Available feature layers: ['flatten'] / Using last layer: flatten

	Batch example shapes:
	[space feature] torch.Size([412, 16, 2048])
	[labels] [torch.Size([412, 16, 4])]
	[idx] torch.Size([412, 16])
    Batch contains 1 clip(s), each with 16 frames

   [optim]: adam
   [sched]: step

Teaching model:  mTECNOv1_f5
-------------- Epoch 1 --------------
     T
	  [B1]  scr: 0.2723
	  [B4]  scr: 0.2340
	  [B7]  scr: 0.2174
	  [B10]  scr: 0.2081
     V
	  [B1]  scr: 0.1566
Train Loss: 3.092067	Valid Loss: 3.169689

* New best model (valid loss): inf --> 3.1697 *

-------------- Epoch 2 --------------
     T
	  [B1]  scr: 0.2326
	  [B4]  scr: 0.1976
	  [B7]  scr: 0.2025
	  [B10]  scr: 0.2131
     V
	  [B1]  scr: 0.3127
Train Loss: 2.784215	Valid Loss: 2.989989

* New best model (valid loss): 3.1697 --> 2.9900 *

-------------- Epoch 3 --------------
     T
	  [B1]  scr: 0.3054
	  [B4]  scr: 0.3878
	  [B7]  scr: 0.4718
	  [B10]  scr: 0.5311
     V
	  [B1]  scr: 0.6379
Train Loss: 2.492812	Valid Loss: 2.701012

* New best model (valid loss): 2.9900 --> 2.7010 *

-------------- Epoch 4 --------------
     T
	  [B1]  scr: 0.7041
	  [B4]  scr: 0.6675
	  [B7]  scr: 0.6552
	  [B10]  scr: 0.6450
     V
	  [B1]  scr: 0.6635
Train Loss: 2.237863	Valid Loss: 2.405189

* New best model (valid loss): 2.7010 --> 2.4052 *

-------------- Epoch 5 --------------
     T
	  [B1]  scr: 0.7130
	  [B4]  scr: 0.7310
	  [B7]  scr: 0.7366
	  [B10]  scr: 0.7423
     V
	  [B1]  scr: 0.6814
Train Loss: 1.837472	Valid Loss: 2.829017
-------------- Epoch 6 --------------
     T
	  [B1]  scr: 0.7980
	  [B4]  scr: 0.8145
	  [B7]  scr: 0.7685
	  [B10]  scr: 0.7651
     V
	  [B1]  scr: 0.6865
Train Loss: 1.582262	Valid Loss: 2.297074

* New best model (valid loss): 2.4052 --> 2.2971 *

-------------- Epoch 7 --------------
     T
	  [B1]  scr: 0.6977
	  [B4]  scr: 0.7764
	  [B7]  scr: 0.8015
	  [B10]  scr: 0.7671
     V
	  [B1]  scr: 0.6696
Train Loss: 1.488638	Valid Loss: 2.304682
-------------- Epoch 8 --------------
     T
	  [B1]  scr: 0.6386
	  [B4]  scr: 0.7807
	  [B7]  scr: 0.7827
	  [B10]  scr: 0.7938
     V
	  [B1]  scr: 0.7125
Train Loss: 1.468438	Valid Loss: 2.343345
-------------- Epoch 9 --------------
     T
	  [B1]  scr: 0.8165
	  [B4]  scr: 0.7960
	  [B7]  scr: 0.8162
	  [B10]  scr: 0.8205
     V
	  [B1]  scr: 0.7101
Train Loss: 1.225763	Valid Loss: 2.504389
-------------- Epoch 10 --------------
     T
	  [B1]  scr: 0.8153
	  [B4]  scr: 0.8490
	  [B7]  scr: 0.8394
	  [B10]  scr: 0.8384
     V
	  [B1]  scr: 0.6908
Train Loss: 1.127440	Valid Loss: 2.663856
-------------- Epoch 11 --------------
     T
	  [B1]  scr: 0.8639
	  [B4]  scr: 0.8264
	  [B7]  scr: 0.8430
	  [B10]  scr: 0.8405
     V
	  [B1]  scr: 0.7114
Train Loss: 1.106154	Valid Loss: 2.707023

* Stopped early *

E. [Evaluating] from trained model mTECNOv1_f5-0.69

	Testing...
	  [B1]  scr: 0.7873
	  [B2]  scr: 0.8158

Test Score: 0.8158 (took 0.81s)

./logs/LDSS-MP1-imdynaug100/mTECNOv1/eval/aprfc/cm_f5-0.69.png
{'0Act,0Obj': 0, '0Obj,Rep': 1, 'Dis,Pro': 2, 'Dis,Vau': 3, 'Fix,Pro': 4, 'Fix,Vau': 5}

phases_preds counts: [1258 1218  429 2125   33 2795] 	 7858
phases_gt counts: [1737  802  274 2228   48 3168] 	 8257
{0: '0Act,0Obj', 1: '0Obj,Rep', 2: 'Dis,Pro', 3: 'Dis,Vau', 4: 'Fix,Pro', 5: 'Fix,Vau'}

Video a909 Phase Report
           |  T Preds   | T Targets  ||   Error   
0Act,0Obj  |  20m 58s   |  28m 57s   ||   7m 59s  
0Obj,Rep   |  20m 18s   |  13m 22s   ||   6m 56s  
Dis,Pro    |   7m 9s    |   4m 34s   ||   2m 35s  
Dis,Vau    |  35m 25s   |   37m 8s   ||   1m 43s  
Fix,Pro    |    33s     |    48s     ||    15s    
Fix,Vau    |  46m 35s   |  52m 48s   ||   6m 13s   


phases_preds counts: [ 785  941  892 5069  199 2762] 	 10648
phases_gt counts: [ 748  733  316 5640  151 3583] 	 11171
{0: '0Act,0Obj', 1: '0Obj,Rep', 2: 'Dis,Pro', 3: 'Dis,Vau', 4: 'Fix,Pro', 5: 'Fix,Vau'}

Video b71b Phase Report
           |  T Preds   | T Targets  ||   Error   
0Act,0Obj  |   13m 5s   |  12m 28s   ||    37s    
0Obj,Rep   |  15m 41s   |  12m 13s   ||   3m 28s  
Dis,Pro    |  14m 52s   |   5m 16s   ||   9m 36s  
Dis,Vau    | 1h 24m 29s |   1h 34m   ||   9m 31s  
Fix,Pro    |   3m 19s   |   2m 31s   ||    48s    
Fix,Vau    |   46m 2s   |  59m 43s   ||  13m 41s   

invalid preds:  922  /  19428
Pred
0Obj,Dis    386
0Act,Vau    262
0Obj,Fix    152
Rep,Vau      52
0Act,Pro     40
Pro,Rep      30
Name: count, dtype: int64
Saving aggregated phase timing results to ./logs/LDSS-MP1-imdynaug100/mTECNOv1/eval/timings/timings_Summary.csv


Number of videos: 2
Video graphing took 1.52 seconds

Saved phase metric graphs to ./logs/LDSS-MP1-imdynaug100/mTECNOv1/eval/ribbons

	 = = = = = 	 = = = = =
		 Fold 5 done!
	 = = = = = 	 = = = = =

  Fold 6 splits:
	train ['26d9', '315a', '5238', 'a334', 'a909', 'b71b', 'e6a9', 'e8d3', 'e8d7', 'f63b']
	valid ['cf7c']
	test ['436c', 'b670']

    No 'path_spaceModel' found. Using pretrained resnet50 in l4-fine-tune mode.
    Feature size of 2048 at node 'flatten'
    Feature size of None at node 'None'

    Found feature path! (feats_f6-0.72.pt)
  Available feature layers: ['flatten'] / Using last layer: flatten

	Batch example shapes:
	[space feature] torch.Size([798, 16, 2048])
	[labels] [torch.Size([798, 16, 4])]
	[idx] torch.Size([798, 16])
    Batch contains 1 clip(s), each with 16 frames

   [optim]: adam
   [sched]: step

Teaching model:  mTECNOv1_f6
-------------- Epoch 1 --------------
     T
	  [B1]  scr: 0.2214
	  [B4]  scr: 0.1338
	  [B7]  scr: 0.1957
	  [B10]  scr: 0.2785
     V
	  [B1]  scr: 0.4810
Train Loss: 2.970657	Valid Loss: 3.149487

* New best model (valid loss): inf --> 3.1495 *

-------------- Epoch 2 --------------
     T
	  [B1]  scr: 0.5416
	  [B4]  scr: 0.4964
	  [B7]  scr: 0.5004
	  [B10]  scr: 0.4976
     V
	  [B1]  scr: 0.4171
Train Loss: 2.670201	Valid Loss: 2.839712

* New best model (valid loss): 3.1495 --> 2.8397 *

-------------- Epoch 3 --------------
     T
	  [B1]  scr: 0.4894
	  [B4]  scr: 0.5228
	  [B7]  scr: 0.5917
	  [B10]  scr: 0.6406
     V
	  [B1]  scr: 0.6707
Train Loss: 2.309973	Valid Loss: 2.562477

* New best model (valid loss): 2.8397 --> 2.5625 *

-------------- Epoch 4 --------------
     T
	  [B1]  scr: 0.6982
	  [B4]  scr: 0.7299
	  [B7]  scr: 0.7403
	  [B10]  scr: 0.7411
     V
	  [B1]  scr: 0.5713
Train Loss: 1.978835	Valid Loss: 2.731647
-------------- Epoch 5 --------------
     T
	  [B1]  scr: 0.6970
	  [B4]  scr: 0.7247
	  [B7]  scr: 0.7365
	  [B10]  scr: 0.7288
     V
	  [B1]  scr: 0.5487
Train Loss: 1.741225	Valid Loss: 2.485100

* New best model (valid loss): 2.5625 --> 2.4851 *

-------------- Epoch 6 --------------
     T
	  [B1]  scr: 0.5372
	  [B4]  scr: 0.6513
	  [B7]  scr: 0.7047
	  [B10]  scr: 0.6875
     V
	  [B1]  scr: 0.6980
Train Loss: 1.776443	Valid Loss: 2.293772

* New best model (valid loss): 2.4851 --> 2.2938 *

-------------- Epoch 7 --------------
     T
	  [B1]  scr: 0.8051
	  [B4]  scr: 0.7990
	  [B7]  scr: 0.7965
	  [B10]  scr: 0.7840
     V
	  [B1]  scr: 0.6849
Train Loss: 1.476408	Valid Loss: 2.288060

* New best model (valid loss): 2.2938 --> 2.2881 *

-------------- Epoch 8 --------------
     T
	  [B1]  scr: 0.7674
	  [B4]  scr: 0.7642
	  [B7]  scr: 0.7682
	  [B10]  scr: 0.7827
     V
	  [B1]  scr: 0.7055
Train Loss: 1.352940	Valid Loss: 2.428068
-------------- Epoch 9 --------------
     T
	  [B1]  scr: 0.8269
	  [B4]  scr: 0.8451
	  [B7]  scr: 0.8400
	  [B10]  scr: 0.8230
     V
	  [B1]  scr: 0.7171
Train Loss: 1.202625	Valid Loss: 2.284084

* New best model (valid loss): 2.2881 --> 2.2841 *

-------------- Epoch 10 --------------
     T
	  [B1]  scr: 0.8452
	  [B4]  scr: 0.8127
	  [B7]  scr: 0.8168
	  [B10]  scr: 0.8178
     V
	  [B1]  scr: 0.7524
Train Loss: 1.144828	Valid Loss: 2.197858

* New best model (valid loss): 2.2841 --> 2.1979 *

-------------- Epoch 11 --------------
     T
	  [B1]  scr: 0.7749
	  [B4]  scr: 0.8279
	  [B7]  scr: 0.8428
	  [B10]  scr: 0.8422
     V
	  [B1]  scr: 0.7333
Train Loss: 1.083544	Valid Loss: 2.301613
-------------- Epoch 12 --------------
     T
	  [B1]  scr: 0.8917
	  [B4]  scr: 0.8616
	  [B7]  scr: 0.8479
	  [B10]  scr: 0.8442
     V
	  [B1]  scr: 0.6877
Train Loss: 1.015670	Valid Loss: 2.408543
-------------- Epoch 13 --------------
     T
	  [B1]  scr: 0.8137
	  [B4]  scr: 0.8289
	  [B7]  scr: 0.8381
	  [B10]  scr: 0.8563
     V
	  [B1]  scr: 0.7155
Train Loss: 0.994637	Valid Loss: 2.271636
-------------- Epoch 14 --------------
     T
	  [B1]  scr: 0.8660
	  [B4]  scr: 0.8155
	  [B7]  scr: 0.8460
	  [B10]  scr: 0.8460
     V
	  [B1]  scr: 0.7114
Train Loss: 1.021877	Valid Loss: 2.583286
-------------- Epoch 15 --------------
     T
	  [B1]  scr: 0.8800
	  [B4]  scr: 0.8909
	  [B7]  scr: 0.8670
	  [B10]  scr: 0.8589
     V
	  [B1]  scr: 0.7198
Train Loss: 0.939420	Valid Loss: 2.538011

* Stopped early *

E. [Evaluating] from trained model mTECNOv1_f6-0.75

	Testing...
	  [B1]  scr: 0.7111
	  [B2]  scr: 0.7433

Test Score: 0.7433 (took 1.03s)

./logs/LDSS-MP1-imdynaug100/mTECNOv1/eval/aprfc/cm_f6-0.75.png
{'0Act,0Obj': 0, '0Obj,Rep': 1, 'Dis,Pro': 2, 'Dis,Vau': 3, 'Fix,Pro': 4, 'Fix,Vau': 5}

phases_preds counts: [ 157 1683 1380 3096  294 1791] 	 8401
phases_gt counts: [ 882  881 1022 2323  340 3777] 	 9225
{0: '0Act,0Obj', 1: '0Obj,Rep', 2: 'Dis,Pro', 3: 'Dis,Vau', 4: 'Fix,Pro', 5: 'Fix,Vau'}

Video 436c Phase Report
           |  T Preds   | T Targets  ||   Error   
0Act,0Obj  |   2m 37s   |  14m 42s   ||   12m 5s  
0Obj,Rep   |   28m 3s   |  14m 41s   ||  13m 22s  
Dis,Pro    |    23m     |   17m 2s   ||   5m 58s  
Dis,Vau    |  51m 36s   |  38m 43s   ||  12m 53s  
Fix,Pro    |   4m 54s   |   5m 40s   ||    46s    
Fix,Vau    |  29m 51s   | 1h 2m 57s  ||   33m 6s   


phases_preds counts: [ 343 1883  934 5273   53 1893] 	 10379
phases_gt counts: [ 731  790  911 4940  618 3143] 	 11133
{0: '0Act,0Obj', 1: '0Obj,Rep', 2: 'Dis,Pro', 3: 'Dis,Vau', 4: 'Fix,Pro', 5: 'Fix,Vau'}

Video b670 Phase Report
           |  T Preds   | T Targets  ||   Error   
0Act,0Obj  |   5m 43s   |  12m 11s   ||   6m 28s  
0Obj,Rep   |  31m 23s   |  13m 10s   ||  18m 13s  
Dis,Pro    |  15m 34s   |  15m 11s   ||    23s    
Dis,Vau    | 1h 27m 53s | 1h 22m 20s ||   5m 33s  
Fix,Pro    |    53s     |  10m 18s   ||   9m 25s  
Fix,Vau    |  31m 33s   |  52m 23s   ||  20m 50s   

invalid preds:  1578  /  20358
Pred
Rep,Vau     835
0Obj,Dis    302
0Act,Pro    192
Pro,Rep     157
0Act,Vau     72
0Obj,Fix     20
Name: count, dtype: int64
Saving aggregated phase timing results to ./logs/LDSS-MP1-imdynaug100/mTECNOv1/eval/timings/timings_Summary.csv


Number of videos: 2
Video graphing took 1.63 seconds

Saved phase metric graphs to ./logs/LDSS-MP1-imdynaug100/mTECNOv1/eval/ribbons

	 = = = = = 	 = = = = =
		 Fold 6 done!
	 = = = = = 	 = = = = =

  Fold 7 splits:
	train ['436c', '5238', 'a334', 'a909', 'b670', 'b71b', 'e6a9', 'e8d3', 'e8d7', 'f63b']
	valid ['cf7c']
	test ['26d9', '315a']

    No 'path_spaceModel' found. Using pretrained resnet50 in l4-fine-tune mode.
    Feature size of 2048 at node 'flatten'
    Feature size of None at node 'None'

    Found feature path! (feats_f7-0.71.pt)
  Available feature layers: ['flatten'] / Using last layer: flatten

	Batch example shapes:
	[space feature] torch.Size([810, 16, 2048])
	[labels] [torch.Size([810, 16, 4])]
	[idx] torch.Size([810, 16])
    Batch contains 1 clip(s), each with 16 frames

   [optim]: adam
   [sched]: step

Teaching model:  mTECNOv1_f7
-------------- Epoch 1 --------------
     T
	  [B1]  scr: 0.4999
	  [B4]  scr: 0.4567
	  [B7]  scr: 0.3771
	  [B10]  scr: 0.3749
     V
	  [B1]  scr: 0.1933
Train Loss: 3.037578	Valid Loss: 3.334415

* New best model (valid loss): inf --> 3.3344 *

-------------- Epoch 2 --------------
     T
	  [B1]  scr: 0.3435
	  [B4]  scr: 0.3154
	  [B7]  scr: 0.3145
	  [B10]  scr: 0.3454
     V
	  [B1]  scr: 0.4813
Train Loss: 2.750288	Valid Loss: 3.111866

* New best model (valid loss): 3.3344 --> 3.1119 *

-------------- Epoch 3 --------------
     T
	  [B1]  scr: 0.5628
	  [B4]  scr: 0.6337
	  [B7]  scr: 0.6217
	  [B10]  scr: 0.6412
     V
	  [B1]  scr: 0.5203
Train Loss: 2.482423	Valid Loss: 2.751151

* New best model (valid loss): 3.1119 --> 2.7512 *

-------------- Epoch 4 --------------
     T
	  [B1]  scr: 0.7878
	  [B4]  scr: 0.7198
	  [B7]  scr: 0.7164
	  [B10]  scr: 0.6966
     V
	  [B1]  scr: 0.5319
Train Loss: 2.157873	Valid Loss: 2.729293

* New best model (valid loss): 2.7512 --> 2.7293 *

-------------- Epoch 5 --------------
     T
	  [B1]  scr: 0.6318
	  [B4]  scr: 0.6414
	  [B7]  scr: 0.6567
	  [B10]  scr: 0.6826
     V
	  [B1]  scr: 0.6537
Train Loss: 1.989878	Valid Loss: 2.858662
-------------- Epoch 6 --------------
     T
	  [B1]  scr: 0.7442
	  [B4]  scr: 0.7604
	  [B7]  scr: 0.7262
	  [B10]  scr: 0.7163
     V
	  [B1]  scr: 0.6544
Train Loss: 1.765288	Valid Loss: 2.427258

* New best model (valid loss): 2.7293 --> 2.4273 *

-------------- Epoch 7 --------------
     T
	  [B1]  scr: 0.8079
	  [B4]  scr: 0.7828
	  [B7]  scr: 0.7892
	  [B10]  scr: 0.7868
     V
	  [B1]  scr: 0.6884
Train Loss: 1.482838	Valid Loss: 2.534084
-------------- Epoch 8 --------------
     T
	  [B1]  scr: 0.7679
	  [B4]  scr: 0.8011
	  [B7]  scr: 0.8012
	  [B10]  scr: 0.7875
     V
	  [B1]  scr: 0.6950
Train Loss: 1.444553	Valid Loss: 2.487591
-------------- Epoch 9 --------------
     T
	  [B1]  scr: 0.7775
	  [B4]  scr: 0.7722
	  [B7]  scr: 0.7924
	  [B10]  scr: 0.7888
     V
	  [B1]  scr: 0.7072
Train Loss: 1.385307	Valid Loss: 2.507205
-------------- Epoch 10 --------------
     T
	  [B1]  scr: 0.7976
	  [B4]  scr: 0.8148
	  [B7]  scr: 0.8091
	  [B10]  scr: 0.8148
     V
	  [B1]  scr: 0.6998
Train Loss: 1.266262	Valid Loss: 2.760835
-------------- Epoch 11 --------------
     T
	  [B1]  scr: 0.8462
	  [B4]  scr: 0.8550
	  [B7]  scr: 0.8463
	  [B10]  scr: 0.8397
     V
	  [B1]  scr: 0.7137
Train Loss: 1.150935	Valid Loss: 2.432244

* Stopped early *

E. [Evaluating] from trained model mTECNOv1_f7-0.65

	Testing...
	  [B1]  scr: 0.8349
	  [B2]  scr: 0.7736

Test Score: 0.7736 (took 0.87s)

./logs/LDSS-MP1-imdynaug100/mTECNOv1/eval/aprfc/cm_f7-0.65.png
{'0Act,0Obj': 0, '0Obj,Rep': 1, 'Dis,Pro': 2, 'Dis,Vau': 3, 'Fix,Pro': 4, 'Fix,Vau': 5}

phases_preds counts: [1426 1133  427 2010  103 3738] 	 8837
phases_gt counts: [1031 1386  463 2223   42 4139] 	 9284
{0: '0Act,0Obj', 1: '0Obj,Rep', 2: 'Dis,Pro', 3: 'Dis,Vau', 4: 'Fix,Pro', 5: 'Fix,Vau'}

Video 26d9 Phase Report
           |  T Preds   | T Targets  ||   Error   
0Act,0Obj  |  23m 46s   |  17m 11s   ||   6m 35s  
0Obj,Rep   |  18m 53s   |   23m 6s   ||   4m 13s  
Dis,Pro    |   7m 7s    |   7m 43s   ||    36s    
Dis,Vau    |  33m 30s   |   37m 3s   ||   3m 33s  
Fix,Pro    |   1m 43s   |    42s     ||   1m 1s   
Fix,Vau    | 1h 2m 18s  | 1h 8m 59s  ||   6m 41s   


phases_preds counts: [2339 1869  352  691  185 3712] 	 9148
phases_gt counts: [1812 1231  558 1536  172 4898] 	 10207
{0: '0Act,0Obj', 1: '0Obj,Rep', 2: 'Dis,Pro', 3: 'Dis,Vau', 4: 'Fix,Pro', 5: 'Fix,Vau'}

Video 315a Phase Report
           |  T Preds   | T Targets  ||   Error   
0Act,0Obj  |  38m 59s   |  30m 12s   ||   8m 47s  
0Obj,Rep   |   31m 9s   |  20m 31s   ||  10m 38s  
Dis,Pro    |   5m 52s   |   9m 18s   ||   3m 26s  
Dis,Vau    |  11m 31s   |  25m 36s   ||   14m 5s  
Fix,Pro    |   3m 5s    |   2m 52s   ||    13s    
Fix,Vau    | 1h 1m 52s  | 1h 21m 38s ||  19m 46s   

invalid preds:  1506  /  19491
Pred
0Obj,Fix    824
0Obj,Dis    287
0Act,Pro    208
0Act,Vau    183
Rep,Vau       2
Pro,Rep       2
Name: count, dtype: int64
Saving aggregated phase timing results to ./logs/LDSS-MP1-imdynaug100/mTECNOv1/eval/timings/timings_Summary.csv


Number of videos: 2
Video graphing took 1.53 seconds

Saved phase metric graphs to ./logs/LDSS-MP1-imdynaug100/mTECNOv1/eval/ribbons

	 = = = = = 	 = = = = =
		 Fold 7 done!
	 = = = = = 	 = = = = =

G. [Processing] Generating all-fold confusion matrix ./logs/LDSS-MP1-imdynaug100/mTECNOv1/eval/preds
Collected 134498 predictions and 134498 targets
Pred tensor shape: torch.Size([268996]), Target tensor shape: torch.Size([268996])
./logs/LDSS-MP1-imdynaug100/mTECNOv1/eval/aprfc/cm_global


 ¨ ¨ ¨ ¨ ¨ ¨ ¨ ¨ ¨ ¨ ¨ ¨ ¨ ¨ ¨ ¨ ¨ ¨ ¨ ¨


Running 14cfg_SP1-tecno2_A.yml...

A. [classroom] LDSS-SP1-imdynaug100 (Matched)
   [model] TECN2v1 (New)
   For ('train', 'process', 'eval')

B. [dataset] LDSS-local (#134498)
   [label type] single-phase-top1
   [preprocessing] imagenet-dynaug
   [classes] #6 (Unbalanced) ['0Act-0Obj', '0Obj-Rep', 'Dis-Pro', 'Dis-Vau', 'Fix-Pro', 'Fix-Vau']
   [weights] [tensor([0.3846, 0.6755, 1.0557, 0.2113, 3.4933, 0.1796])]
   [phases] #6  ['0Act-0Obj', '0Obj-Rep', 'Dis-Pro', 'Dis-Vau', 'Fix-Pro', 'Fix-Vau'] 

C. [training] start on [device] cpu
   [folds] #7 [epochs] #100 [batch sizes] s32 / t1
   [criterions] [CrossEntropyLoss()] w/ weights [tensor([0.3846, 0.6755, 1.0557, 0.2113, 3.4933, 0.1796])]
   [headtype] [6] 

  Fold 1 splits:
	train ['26d9', '315a', '436c', '5238', 'a909', 'b670', 'b71b', 'e6a9', 'e8d3', 'e8d7']
	valid ['a334', 'f63b']
	test ['cf7c']

    No 'path_spaceModel' found. Using pretrained resnet50 in l4-fine-tune mode.
    Feature size of 2048 at node 'flatten'
    Feature size of None at node 'None'

    Found feature path! (feats_f1-0.80.pt)
  Available feature layers: ['flatten'] / Using last layer: flatten

	Batch example shapes:
	[space feature] torch.Size([577, 16, 2048])
	[labels] [torch.Size([577, 16])]
	[idx] torch.Size([577, 16])
    Batch contains 1 clip(s), each with 16 frames

   [optim]: adam
   [sched]: step

Teaching model:  TECN2v1_f1
-------------- Epoch 1 --------------
     T
	  [B1]  scr: 0.3313
	  [B4]  scr: 0.1330
	  [B7]  scr: 0.0950
	  [B10]  scr: 0.0816
     V
	  [B1]  scr: 0.0321
	  [B2]  scr: 0.0209
Train Loss: 3.581474	Valid Loss: 3.526315

* New best model (valid loss): inf --> 3.5263 *

-------------- Epoch 2 --------------
     T
	  [B1]  scr: 0.1691
	  [B4]  scr: 0.2358
	  [B7]  scr: 0.2771
	  [B10]  scr: 0.2895
     V
	  [B1]  scr: 0.2799
	  [B2]  scr: 0.3768
Train Loss: 3.394380	Valid Loss: 3.286016

* New best model (valid loss): 3.5263 --> 3.2860 *

-------------- Epoch 3 --------------
     T
	  [B1]  scr: 0.2984
	  [B4]  scr: 0.3852
	  [B7]  scr: 0.3845
	  [B10]  scr: 0.3803
     V
	  [B1]  scr: 0.5496
	  [B2]  scr: 0.4832
Train Loss: 3.134252	Valid Loss: 2.985503

* New best model (valid loss): 3.2860 --> 2.9855 *

-------------- Epoch 4 --------------
     T
	  [B1]  scr: 0.3120
	  [B4]  scr: 0.3493
	  [B7]  scr: 0.3196
	  [B10]  scr: 0.3309
     V
	  [B1]  scr: 0.6850
	  [B2]  scr: 0.5610
Train Loss: 2.852253	Valid Loss: 2.595248

* New best model (valid loss): 2.9855 --> 2.5952 *

-------------- Epoch 5 --------------
     T
	  [B1]  scr: 0.3692
	  [B4]  scr: 0.4017
	  [B7]  scr: 0.3964
	  [B10]  scr: 0.4426
     V
	  [B1]  scr: 0.6479
	  [B2]  scr: 0.5942
Train Loss: 2.485595	Valid Loss: 2.349342

* New best model (valid loss): 2.5952 --> 2.3493 *

-------------- Epoch 6 --------------
     T
	  [B1]  scr: 0.6145
	  [B4]  scr: 0.5634
	  [B7]  scr: 0.4787
	  [B10]  scr: 0.4844
     V
	  [B1]  scr: 0.6381
	  [B2]  scr: 0.5953
Train Loss: 2.196974	Valid Loss: 2.057828

* New best model (valid loss): 2.3493 --> 2.0578 *

-------------- Epoch 7 --------------
     T
	  [B1]  scr: 0.5756
	  [B4]  scr: 0.6865
	  [B7]  scr: 0.6745
	  [B10]  scr: 0.6744
     V
	  [B1]  scr: 0.6234
	  [B2]  scr: 0.5767
Train Loss: 1.800456	Valid Loss: 1.792974

* New best model (valid loss): 2.0578 --> 1.7930 *

-------------- Epoch 8 --------------
     T
	  [B1]  scr: 0.7081
	  [B4]  scr: 0.6862
	  [B7]  scr: 0.7034
	  [B10]  scr: 0.6834
     V
	  [B1]  scr: 0.6014
	  [B2]  scr: 0.5771
Train Loss: 1.677785	Valid Loss: 1.750954

* New best model (valid loss): 1.7930 --> 1.7510 *

-------------- Epoch 9 --------------
     T
	  [B1]  scr: 0.6972
	  [B4]  scr: 0.5917
	  [B7]  scr: 0.5963
	  [B10]  scr: 0.6266
     V
	  [B1]  scr: 0.6906
	  [B2]  scr: 0.6426
Train Loss: 1.545625	Valid Loss: 1.972340
-------------- Epoch 10 --------------
     T
	  [B1]  scr: 0.5389
	  [B4]  scr: 0.7174
	  [B7]  scr: 0.7315
	  [B10]  scr: 0.7165
     V
	  [B1]  scr: 0.7108
	  [B2]  scr: 0.6440
Train Loss: 1.425591	Valid Loss: 1.646516

* New best model (valid loss): 1.7510 --> 1.6465 *

-------------- Epoch 11 --------------
     T
	  [B1]  scr: 0.6395
	  [B4]  scr: 0.7254
	  [B7]  scr: 0.7442
	  [B10]  scr: 0.7658
     V
	  [B1]  scr: 0.7560
	  [B2]  scr: 0.6654
Train Loss: 1.295955	Valid Loss: 1.701982
-------------- Epoch 12 --------------
     T
	  [B1]  scr: 0.5948
	  [B4]  scr: 0.6720
	  [B7]  scr: 0.7123
	  [B10]  scr: 0.7457
     V
	  [B1]  scr: 0.7978
	  [B2]  scr: 0.7364
Train Loss: 1.233394	Valid Loss: 1.760457
-------------- Epoch 13 --------------
     T
	  [B1]  scr: 0.8446
	  [B4]  scr: 0.7635
	  [B7]  scr: 0.7470
	  [B10]  scr: 0.7484
     V
	  [B1]  scr: 0.7538
	  [B2]  scr: 0.7057
Train Loss: 1.212219	Valid Loss: 1.869193
-------------- Epoch 14 --------------
     T
	  [B1]  scr: 0.7668
	  [B4]  scr: 0.7998
	  [B7]  scr: 0.7968
	  [B10]  scr: 0.7950
     V
	  [B1]  scr: 0.6966
	  [B2]  scr: 0.6846
Train Loss: 1.137601	Valid Loss: 1.524880

* New best model (valid loss): 1.6465 --> 1.5249 *

-------------- Epoch 15 --------------
     T
	  [B1]  scr: 0.7617
	  [B4]  scr: 0.7243
	  [B7]  scr: 0.7584
	  [B10]  scr: 0.7785
     V
	  [B1]  scr: 0.7672
	  [B2]  scr: 0.7153
Train Loss: 1.101167	Valid Loss: 1.864905
-------------- Epoch 16 --------------
     T
	  [B1]  scr: 0.8799
	  [B4]  scr: 0.8230
	  [B7]  scr: 0.7563
	  [B10]  scr: 0.7706
     V
	  [B1]  scr: 0.7814
	  [B2]  scr: 0.7502
Train Loss: 1.116726	Valid Loss: 1.890626
-------------- Epoch 17 --------------
     T
	  [B1]  scr: 0.8551
	  [B4]  scr: 0.8498
	  [B7]  scr: 0.8124
	  [B10]  scr: 0.8128
     V
	  [B1]  scr: 0.7451
	  [B2]  scr: 0.7337
Train Loss: 1.012249	Valid Loss: 1.618234
-------------- Epoch 18 --------------
     T
	  [B1]  scr: 0.7779
	  [B4]  scr: 0.8270
	  [B7]  scr: 0.8148
	  [B10]  scr: 0.8157
     V
	  [B1]  scr: 0.7314
	  [B2]  scr: 0.7045
Train Loss: 0.966652	Valid Loss: 1.593342
-------------- Epoch 19 --------------
     T
	  [B1]  scr: 0.7818
	  [B4]  scr: 0.8453
	  [B7]  scr: 0.8441
	  [B10]  scr: 0.8166
     V
	  [B1]  scr: 0.7426
	  [B2]  scr: 0.7464
Train Loss: 0.938381	Valid Loss: 1.535187

* Stopped early *

E. [Evaluating] from trained model TECN2v1_f1-0.68

	Testing...
	  [B1]  scr: 0.6889

Test Score: 0.6889 (took 0.72s)

./logs/LDSS-SP1-imdynaug100/TECN2v1/eval/aprfc/cm_f1-0.68.png
{'0Act-0Obj': 0, '0Obj-Rep': 1, 'Dis-Pro': 2, 'Dis-Vau': 3, 'Fix-Pro': 4, 'Fix-Vau': 5}

phases_preds counts: [6195  788 1571 3728  357 5137] 	 17776
phases_gt counts: [5930 1281 1128 3955  157 5325] 	 17776
{0: '0Act-0Obj', 1: '0Obj-Rep', 2: 'Dis-Pro', 3: 'Dis-Vau', 4: 'Fix-Pro', 5: 'Fix-Vau'}

Video cf7c Phase Report
           |  T Preds   | T Targets  ||   Error   
0Act-0Obj  | 1h 43m 15s | 1h 38m 50s ||   4m 25s  
0Obj-Rep   |   13m 8s   |  21m 21s   ||   8m 13s  
Dis-Pro    |  26m 11s   |  18m 48s   ||   7m 23s  
Dis-Vau    |  1h 2m 8s  | 1h 5m 55s  ||   3m 47s  
Fix-Pro    |   5m 57s   |   2m 37s   ||   3m 20s  
Fix-Vau    | 1h 25m 37s | 1h 28m 45s ||   3m 8s    

invalid preds:  0  /  17776
Series([], Name: count, dtype: int64)
Saving aggregated phase timing results to ./logs/LDSS-SP1-imdynaug100/TECN2v1/eval/timings/timings_Summary.csv


Number of videos: 1
Video graphing took 0.96 seconds

Saved phase metric graphs to ./logs/LDSS-SP1-imdynaug100/TECN2v1/eval/ribbons

	 = = = = = 	 = = = = =
		 Fold 1 done!
	 = = = = = 	 = = = = =

  Fold 2 splits:
	train ['26d9', '315a', '436c', '5238', 'a909', 'b670', 'b71b', 'e6a9', 'e8d3', 'e8d7']
	valid ['cf7c']
	test ['a334', 'f63b']

    No 'path_spaceModel' found. Using pretrained resnet50 in l4-fine-tune mode.
    Feature size of 2048 at node 'flatten'
    Feature size of None at node 'None'

    Found feature path! (feats_f2-0.72.pt)
  Available feature layers: ['flatten'] / Using last layer: flatten

	Batch example shapes:
	[space feature] torch.Size([577, 16, 2048])
	[labels] [torch.Size([577, 16])]
	[idx] torch.Size([577, 16])
    Batch contains 1 clip(s), each with 16 frames

   [optim]: adam
   [sched]: step

Teaching model:  TECN2v1_f2
-------------- Epoch 1 --------------
     T
	  [B1]  scr: 0.1991
	  [B4]  scr: 0.0845
	  [B7]  scr: 0.0622
	  [B10]  scr: 0.0593
     V
	  [B1]  scr: 0.0088
Train Loss: 3.558886	Valid Loss: 3.514151

* New best model (valid loss): inf --> 3.5142 *

-------------- Epoch 2 --------------
     T
	  [B1]  scr: 0.0786
	  [B4]  scr: 0.1973
	  [B7]  scr: 0.2691
	  [B10]  scr: 0.3083
     V
	  [B1]  scr: 0.4408
Train Loss: 3.338524	Valid Loss: 3.281462

* New best model (valid loss): 3.5142 --> 3.2815 *

-------------- Epoch 3 --------------
     T
	  [B1]  scr: 0.4559
	  [B4]  scr: 0.5332
	  [B7]  scr: 0.5616
	  [B10]  scr: 0.5589
     V
	  [B1]  scr: 0.4646
Train Loss: 2.995078	Valid Loss: 3.038605

* New best model (valid loss): 3.2815 --> 3.0386 *

-------------- Epoch 4 --------------
     T
	  [B1]  scr: 0.5977
	  [B4]  scr: 0.5543
	  [B7]  scr: 0.5543
	  [B10]  scr: 0.5487
     V
	  [B1]  scr: 0.4293
Train Loss: 2.718873	Valid Loss: 2.963866

* New best model (valid loss): 3.0386 --> 2.9639 *

-------------- Epoch 5 --------------
     T
	  [B1]  scr: 0.5086
	  [B4]  scr: 0.5191
	  [B7]  scr: 0.5270
	  [B10]  scr: 0.5193
     V
	  [B1]  scr: 0.4967
Train Loss: 2.396904	Valid Loss: 2.690740

* New best model (valid loss): 2.9639 --> 2.6907 *

-------------- Epoch 6 --------------
     T
	  [B1]  scr: 0.6060
	  [B4]  scr: 0.5334
	  [B7]  scr: 0.4774
	  [B10]  scr: 0.4713
     V
	  [B1]  scr: 0.3140
Train Loss: 2.134446	Valid Loss: 2.572372

* New best model (valid loss): 2.6907 --> 2.5724 *

-------------- Epoch 7 --------------
     T
	  [B1]  scr: 0.4647
	  [B4]  scr: 0.4885
	  [B7]  scr: 0.4960
	  [B10]  scr: 0.4744
     V
	  [B1]  scr: 0.3695
Train Loss: 1.910510	Valid Loss: 2.719270
-------------- Epoch 8 --------------
     T
	  [B1]  scr: 0.5566
	  [B4]  scr: 0.6165
	  [B7]  scr: 0.6222
	  [B10]  scr: 0.6531
     V
	  [B1]  scr: 0.6047
Train Loss: 1.785273	Valid Loss: 2.525433

* New best model (valid loss): 2.5724 --> 2.5254 *

-------------- Epoch 9 --------------
     T
	  [B1]  scr: 0.7523
	  [B4]  scr: 0.7059
	  [B7]  scr: 0.6449
	  [B10]  scr: 0.6168
     V
	  [B1]  scr: 0.3721
Train Loss: 1.624873	Valid Loss: 2.965170
-------------- Epoch 10 --------------
     T
	  [B1]  scr: 0.5666
	  [B4]  scr: 0.4725
	  [B7]  scr: 0.4995
	  [B10]  scr: 0.5122
     V
	  [B1]  scr: 0.3856
Train Loss: 1.552455	Valid Loss: 2.512076

* New best model (valid loss): 2.5254 --> 2.5121 *

-------------- Epoch 11 --------------
     T
	  [B1]  scr: 0.5043
	  [B4]  scr: 0.5589
	  [B7]  scr: 0.6202
	  [B10]  scr: 0.6336
     V
	  [B1]  scr: 0.4987
Train Loss: 1.447397	Valid Loss: 2.342144

* New best model (valid loss): 2.5121 --> 2.3421 *

-------------- Epoch 12 --------------
     T
	  [B1]  scr: 0.6379
	  [B4]  scr: 0.6801
	  [B7]  scr: 0.7194
	  [B10]  scr: 0.7298
     V
	  [B1]  scr: 0.5195
Train Loss: 1.282892	Valid Loss: 2.481400
-------------- Epoch 13 --------------
     T
	  [B1]  scr: 0.6485
	  [B4]  scr: 0.6832
	  [B7]  scr: 0.6738
	  [B10]  scr: 0.7226
     V
	  [B1]  scr: 0.6006
Train Loss: 1.184577	Valid Loss: 2.482306
-------------- Epoch 14 --------------
     T
	  [B1]  scr: 0.8209
	  [B4]  scr: 0.7676
	  [B7]  scr: 0.7923
	  [B10]  scr: 0.7882
     V
	  [B1]  scr: 0.6583
Train Loss: 1.109854	Valid Loss: 2.373064
-------------- Epoch 15 --------------
     T
	  [B1]  scr: 0.8444
	  [B4]  scr: 0.7951
	  [B7]  scr: 0.8085
	  [B10]  scr: 0.8066
     V
	  [B1]  scr: 0.6409
Train Loss: 1.031898	Valid Loss: 2.456849
-------------- Epoch 16 --------------
     T
	  [B1]  scr: 0.8096
	  [B4]  scr: 0.7473
	  [B7]  scr: 0.7680
	  [B10]  scr: 0.7990
     V
	  [B1]  scr: 0.6009
Train Loss: 1.050348	Valid Loss: 2.610050

* Stopped early *

E. [Evaluating] from trained model TECN2v1_f2-0.50

	Testing...
	  [B1]  scr: 0.7190
	  [B2]  scr: 0.6822

Test Score: 0.6822 (took 0.76s)

./logs/LDSS-SP1-imdynaug100/TECN2v1/eval/aprfc/cm_f2-0.50.png
{'0Act-0Obj': 0, '0Obj-Rep': 1, 'Dis-Pro': 2, 'Dis-Vau': 3, 'Fix-Pro': 4, 'Fix-Vau': 5}

phases_preds counts: [ 427 1012  159 1295  407 3110] 	 6410
phases_gt counts: [ 579 1423   53  916  100 3339] 	 6410
{0: '0Act-0Obj', 1: '0Obj-Rep', 2: 'Dis-Pro', 3: 'Dis-Vau', 4: 'Fix-Pro', 5: 'Fix-Vau'}

Video a334 Phase Report
           |  T Preds   | T Targets  ||   Error   
0Act-0Obj  |   7m 7s    |   9m 39s   ||   2m 32s  
0Obj-Rep   |  16m 52s   |  23m 43s   ||   6m 51s  
Dis-Pro    |   2m 39s   |    53s     ||   1m 46s  
Dis-Vau    |  21m 35s   |  15m 16s   ||   6m 19s  
Fix-Pro    |   6m 47s   |   1m 40s   ||   5m 7s   
Fix-Vau    |  51m 50s   |  55m 39s   ||   3m 49s   


phases_preds counts: [1073 1379 1510 4407  844 3743] 	 12956
phases_gt counts: [2841  718 1344 3002  155 4896] 	 12956
{0: '0Act-0Obj', 1: '0Obj-Rep', 2: 'Dis-Pro', 3: 'Dis-Vau', 4: 'Fix-Pro', 5: 'Fix-Vau'}

Video f63b Phase Report
           |  T Preds   | T Targets  ||   Error   
0Act-0Obj  |  17m 53s   |  47m 21s   ||  29m 28s  
0Obj-Rep   |  22m 59s   |  11m 58s   ||   11m 1s  
Dis-Pro    |  25m 10s   |  22m 24s   ||   2m 46s  
Dis-Vau    | 1h 13m 27s |   50m 2s   ||  23m 25s  
Fix-Pro    |   14m 4s   |   2m 35s   ||  11m 29s  
Fix-Vau    | 1h 2m 23s  | 1h 21m 36s ||  19m 13s   

invalid preds:  0  /  19366
Series([], Name: count, dtype: int64)
Saving aggregated phase timing results to ./logs/LDSS-SP1-imdynaug100/TECN2v1/eval/timings/timings_Summary.csv


Number of videos: 2
Video graphing took 1.23 seconds

Saved phase metric graphs to ./logs/LDSS-SP1-imdynaug100/TECN2v1/eval/ribbons

	 = = = = = 	 = = = = =
		 Fold 2 done!
	 = = = = = 	 = = = = =

  Fold 3 splits:
	train ['26d9', '315a', '436c', '5238', 'a334', 'a909', 'b670', 'b71b', 'e8d3', 'f63b']
	valid ['cf7c']
	test ['e6a9', 'e8d7']

    No 'path_spaceModel' found. Using pretrained resnet50 in l4-fine-tune mode.
    Feature size of 2048 at node 'flatten'
    Feature size of None at node 'None'

    Found feature path! (feats_f3-0.76.pt)
  Available feature layers: ['flatten'] / Using last layer: flatten

	Batch example shapes:
	[space feature] torch.Size([577, 16, 2048])
	[labels] [torch.Size([577, 16])]
	[idx] torch.Size([577, 16])
    Batch contains 1 clip(s), each with 16 frames

   [optim]: adam
   [sched]: step

Teaching model:  TECN2v1_f3
-------------- Epoch 1 --------------
     T
	  [B1]  scr: 0.2928
	  [B4]  scr: 0.3030
	  [B7]  scr: 0.2781
	  [B10]  scr: 0.2615
     V
	  [B1]  scr: 0.2996
Train Loss: 3.628715	Valid Loss: 3.600714

* New best model (valid loss): inf --> 3.6007 *

-------------- Epoch 2 --------------
     T
	  [B1]  scr: 0.3705
	  [B4]  scr: 0.2970
	  [B7]  scr: 0.2876
	  [B10]  scr: 0.3064
     V
	  [B1]  scr: 0.3063
Train Loss: 3.464752	Valid Loss: 3.495282

* New best model (valid loss): 3.6007 --> 3.4953 *

-------------- Epoch 3 --------------
     T
	  [B1]  scr: 0.3699
	  [B4]  scr: 0.3107
	  [B7]  scr: 0.3116
	  [B10]  scr: 0.3162
     V
	  [B1]  scr: 0.2889
Train Loss: 3.235291	Valid Loss: 3.338319

* New best model (valid loss): 3.4953 --> 3.3383 *

-------------- Epoch 4 --------------
     T
	  [B1]  scr: 0.3760
	  [B4]  scr: 0.4584
	  [B7]  scr: 0.5148
	  [B10]  scr: 0.5135
     V
	  [B1]  scr: 0.4702
Train Loss: 2.934205	Valid Loss: 3.156639

* New best model (valid loss): 3.3383 --> 3.1566 *

